{
"type": "FeatureCollection",
"name": "populated_capitals",
"crs": { "type": "name", "properties": { "name": "urn:ogc:def:crs:OGC:1.3:CRS84" } },
"features": [
{ "type": "Feature", "properties": { "name": "Doha", "pop_max": 1450000 }, "geometry": { "type": "Point", "coordinates": [ 51.5329679, 25.286556 ] } },
{ "type": "Feature", "properties": { "name": "Montevideo", "pop_max": 1513000 }, "geometry": { "type": "Point", "coordinates": [ -56.186823378310741, -34.905376389708067 ] } },
{ "type": "Feature", "properties": { "name": "Lomé", "pop_max": 1452000 }, "geometry": { "type": "Point", "coordinates": [ 1.2208113, 6.1338829 ] } },
{ "type": "Feature", "properties": { "name": "Tunis", "pop_max": 2412500 }, "geometry": { "type": "Point", "coordinates": [ 10.1796781, 36.8027781 ] } },
{ "type": "Feature", "properties": { "name": "Lusaka", "pop_max": 1328000 }, "geometry": { "type": "Point", "coordinates": [ 28.2813817, -15.4146984 ] } },
{ "type": "Feature", "properties": { "name": "Harare", "pop_max": 1572000 }, "geometry": { "type": "Point", "coordinates": [ 31.0427636, -17.8158438 ] } },
{ "type": "Feature", "properties": { "name": "Port-au-Prince", "pop_max": 1998000 }, "geometry": { "type": "Point", "coordinates": [ -72.3379804, 18.5429705 ] } },
{ "type": "Feature", "properties": { "name": "Kampala", "pop_max": 1420000 }, "geometry": { "type": "Point", "coordinates": [ 32.5813777, 0.3186048 ] } },
{ "type": "Feature", "properties": { "name": "Dushanbe", "pop_max": 1086244 }, "geometry": { "type": "Point", "coordinates": [ 68.7738794, 38.5600352 ] } },
{ "type": "Feature", "properties": { "name": "Asunción", "pop_max": 1870000 }, "geometry": { "type": "Point", "coordinates": [ -57.625833755283011, -25.29067083610963 ] } },
{ "type": "Feature", "properties": { "name": "Pretoria", "pop_max": 1338000 }, "geometry": { "type": "Point", "coordinates": [ 28.2274832, -25.7049747 ] } },
{ "type": "Feature", "properties": { "name": "Panama City", "pop_max": 1281000 }, "geometry": { "type": "Point", "coordinates": [ -79.534983, 8.969963 ] } },
{ "type": "Feature", "properties": { "name": "Rabat", "pop_max": 1705000 }, "geometry": { "type": "Point", "coordinates": [ -6.8364082, 34.0253073 ] } },
{ "type": "Feature", "properties": { "name": "Maputo", "pop_max": 1446000 }, "geometry": { "type": "Point", "coordinates": [ 32.5872171, -25.9533316 ] } },
{ "type": "Feature", "properties": { "name": "Mogadishu", "pop_max": 1100000 }, "geometry": { "type": "Point", "coordinates": [ 45.3647318, 2.0686272 ] } },
{ "type": "Feature", "properties": { "name": "Abuja", "pop_max": 1576000 }, "geometry": { "type": "Point", "coordinates": [ 7.489505042885861, 9.054620406360845 ] } },
{ "type": "Feature", "properties": { "name": "Amman", "pop_max": 1060000 }, "geometry": { "type": "Point", "coordinates": [ 35.9313541, 31.9519711 ] } },
{ "type": "Feature", "properties": { "name": "Antananarivo", "pop_max": 1697000 }, "geometry": { "type": "Point", "coordinates": [ 47.514678, -18.9146915 ] } },
{ "type": "Feature", "properties": { "name": "Quito", "pop_max": 1701000 }, "geometry": { "type": "Point", "coordinates": [ -78.501997, -0.2130423 ] } },
{ "type": "Feature", "properties": { "name": "San José", "pop_max": 1284000 }, "geometry": { "type": "Point", "coordinates": [ -84.078813969646333, 9.930370727948475 ] } },
{ "type": "Feature", "properties": { "name": "San Salvador", "pop_max": 1433000 }, "geometry": { "type": "Point", "coordinates": [ -89.215575804527603, 13.703280259193864 ] } },
{ "type": "Feature", "properties": { "name": "Guatemala City", "pop_max": 1024000 }, "geometry": { "type": "Point", "coordinates": [ -90.5289114, 14.6230805 ] } },
{ "type": "Feature", "properties": { "name": "Bamako", "pop_max": 1494000 }, "geometry": { "type": "Point", "coordinates": [ -8.001985, 12.6519605 ] } },
{ "type": "Feature", "properties": { "name": "Beirut", "pop_max": 1846000 }, "geometry": { "type": "Point", "coordinates": [ 35.5077624, 33.873921 ] } },
{ "type": "Feature", "properties": { "name": "Tbilisi", "pop_max": 1100000 }, "geometry": { "type": "Point", "coordinates": [ 44.7888496, 41.7269558 ] } },
{ "type": "Feature", "properties": { "name": "Brazzaville", "pop_max": 1355000 }, "geometry": { "type": "Point", "coordinates": [ 15.2827436, -4.2572399 ] } },
{ "type": "Feature", "properties": { "name": "Conakry", "pop_max": 1494000 }, "geometry": { "type": "Point", "coordinates": [ -13.6821809, 9.5334687 ] } },
{ "type": "Feature", "properties": { "name": "Ottawa", "pop_max": 1145000 }, "geometry": { "type": "Point", "coordinates": [ -75.7019612, 45.4186427 ] } },
{ "type": "Feature", "properties": { "name": "Belgrade", "pop_max": 1099000 }, "geometry": { "type": "Point", "coordinates": [ 20.4660448, 44.8205913 ] } },
{ "type": "Feature", "properties": { "name": "Yaoundé", "pop_max": 1611000 }, "geometry": { "type": "Point", "coordinates": [ 11.5147049, 3.8686465 ] } },
{ "type": "Feature", "properties": { "name": "Yerevan", "pop_max": 1102000 }, "geometry": { "type": "Point", "coordinates": [ 44.5116055, 40.1830966 ] } },
{ "type": "Feature", "properties": { "name": "Baku", "pop_max": 2122300 }, "geometry": { "type": "Point", "coordinates": [ 49.8602713, 40.3972179 ] } },
{ "type": "Feature", "properties": { "name": "Phnom Penh", "pop_max": 1466000 }, "geometry": { "type": "Point", "coordinates": [ 104.9146886, 11.551976 ] } },
{ "type": "Feature", "properties": { "name": "La Paz", "pop_max": 1590000 }, "geometry": { "type": "Point", "coordinates": [ -68.151931, -16.4960278 ] } },
{ "type": "Feature", "properties": { "name": "Sofia", "pop_max": 1185000 }, "geometry": { "type": "Point", "coordinates": [ 23.3147082, 42.6852953 ] } },
{ "type": "Feature", "properties": { "name": "Minsk", "pop_max": 1805000 }, "geometry": { "type": "Point", "coordinates": [ 27.5646813, 53.9019233 ] } },
{ "type": "Feature", "properties": { "name": "Ouagadougou", "pop_max": 1149000 }, "geometry": { "type": "Point", "coordinates": [ -1.5266696, 12.3722618 ] } },
{ "type": "Feature", "properties": { "name": "Jerusalem", "pop_max": 1029300 }, "geometry": { "type": "Point", "coordinates": [ 35.2066259, 31.7784078 ] } },
{ "type": "Feature", "properties": { "name": "Hanoi", "pop_max": 4378000 }, "geometry": { "type": "Point", "coordinates": [ 105.8480683, 21.0352731 ] } },
{ "type": "Feature", "properties": { "name": "Ankara", "pop_max": 3716000 }, "geometry": { "type": "Point", "coordinates": [ 32.8624458, 39.9291844 ] } },
{ "type": "Feature", "properties": { "name": "Budapest", "pop_max": 1679000 }, "geometry": { "type": "Point", "coordinates": [ 19.0813748, 47.5019522 ] } },
{ "type": "Feature", "properties": { "name": "Sanaa", "pop_max": 2008000 }, "geometry": { "type": "Point", "coordinates": [ 44.2046475, 15.3566792 ] } },
{ "type": "Feature", "properties": { "name": "Bucharest", "pop_max": 1942000 }, "geometry": { "type": "Point", "coordinates": [ 26.0980008, 44.4353177 ] } },
{ "type": "Feature", "properties": { "name": "Damascus", "pop_max": 2466000 }, "geometry": { "type": "Point", "coordinates": [ 36.29805, 33.5019799 ] } },
{ "type": "Feature", "properties": { "name": "Lisbon", "pop_max": 2812000 }, "geometry": { "type": "Point", "coordinates": [ -9.1468122, 38.7246687 ] } },
{ "type": "Feature", "properties": { "name": "Khartoum", "pop_max": 4754000 }, "geometry": { "type": "Point", "coordinates": [ 32.5322334, 15.5900241 ] } },
{ "type": "Feature", "properties": { "name": "Warsaw", "pop_max": 1707000 }, "geometry": { "type": "Point", "coordinates": [ 21.005346737742283, 52.230871973539507 ] } },
{ "type": "Feature", "properties": { "name": "Pyongyang", "pop_max": 3300000 }, "geometry": { "type": "Point", "coordinates": [ 125.7527449, 39.0213846 ] } },
{ "type": "Feature", "properties": { "name": "Dar es Salaam", "pop_max": 2930000 }, "geometry": { "type": "Point", "coordinates": [ 39.266396, -6.7980667 ] } },
{ "type": "Feature", "properties": { "name": "Dublin", "pop_max": 1059000 }, "geometry": { "type": "Point", "coordinates": [ -6.256979517281132, 53.34673124898314 ] } },
{ "type": "Feature", "properties": { "name": "Monrovia", "pop_max": 1041000 }, "geometry": { "type": "Point", "coordinates": [ -10.7996604, 6.3145816 ] } },
{ "type": "Feature", "properties": { "name": "Kuala Lumpur", "pop_max": 1448000 }, "geometry": { "type": "Point", "coordinates": [ 101.688699291061937, 3.13979694393525 ] } },
{ "type": "Feature", "properties": { "name": "Havana", "pop_max": 2174000 }, "geometry": { "type": "Point", "coordinates": [ -82.366128, 23.1339047 ] } },
{ "type": "Feature", "properties": { "name": "Prague", "pop_max": 1162000 }, "geometry": { "type": "Point", "coordinates": [ 14.422939486203868, 50.086966537321501 ] } },
{ "type": "Feature", "properties": { "name": "Kuwait City", "pop_max": 2063000 }, "geometry": { "type": "Point", "coordinates": [ 47.9763553, 29.3716635 ] } },
{ "type": "Feature", "properties": { "name": "Santo Domingo", "pop_max": 2154000 }, "geometry": { "type": "Point", "coordinates": [ -69.929742315790548, 18.470745058048376 ] } },
{ "type": "Feature", "properties": { "name": "Accra", "pop_max": 2121000 }, "geometry": { "type": "Point", "coordinates": [ -0.2186616, 5.5519805 ] } },
{ "type": "Feature", "properties": { "name": "Tripoli", "pop_max": 2189000 }, "geometry": { "type": "Point", "coordinates": [ 13.1800118, 32.8925 ] } },
{ "type": "Feature", "properties": { "name": "Helsinki", "pop_max": 1115000 }, "geometry": { "type": "Point", "coordinates": [ 24.932456915043964, 60.163803849485681 ] } },
{ "type": "Feature", "properties": { "name": "København", "pop_max": 1085000 }, "geometry": { "type": "Point", "coordinates": [ 12.5615399, 55.68051 ] } },
{ "type": "Feature", "properties": { "name": "Abidjan", "pop_max": 3802000 }, "geometry": { "type": "Point", "coordinates": [ -4.020206835187587, 5.323126072244571 ] } },
{ "type": "Feature", "properties": { "name": "Brasília", "pop_max": 3716996 }, "geometry": { "type": "Point", "coordinates": [ -47.9179981, -15.7813944 ] } },
{ "type": "Feature", "properties": { "name": "Brussels", "pop_max": 1743000 }, "geometry": { "type": "Point", "coordinates": [ 4.3313707, 50.8352629 ] } },
{ "type": "Feature", "properties": { "name": "Dhaka", "pop_max": 12797394 }, "geometry": { "type": "Point", "coordinates": [ 90.4066336, 23.7250056 ] } },
{ "type": "Feature", "properties": { "name": "Luanda", "pop_max": 5172900 }, "geometry": { "type": "Point", "coordinates": [ 13.2324812, -8.8363403 ] } },
{ "type": "Feature", "properties": { "name": "Algiers", "pop_max": 3354000 }, "geometry": { "type": "Point", "coordinates": [ 3.0486067, 36.7650107 ] } },
{ "type": "Feature", "properties": { "name": "Caracas", "pop_max": 2985000 }, "geometry": { "type": "Point", "coordinates": [ -66.9189831, 10.5029444 ] } },
{ "type": "Feature", "properties": { "name": "Kyiv", "pop_max": 2709000 }, "geometry": { "type": "Point", "coordinates": [ 30.5146821, 50.4353132 ] } },
{ "type": "Feature", "properties": { "name": "Tashkent", "pop_max": 2184000 }, "geometry": { "type": "Point", "coordinates": [ 69.268822942662609, 41.303828221561979 ] } },
{ "type": "Feature", "properties": { "name": "Madrid", "pop_max": 5567000 }, "geometry": { "type": "Point", "coordinates": [ -3.6852975, 40.4019721 ] } },
{ "type": "Feature", "properties": { "name": "Stockholm", "pop_max": 1264000 }, "geometry": { "type": "Point", "coordinates": [ 18.066300168534497, 59.324127204007475 ] } },
{ "type": "Feature", "properties": { "name": "Bangkok", "pop_max": 6704000 }, "geometry": { "type": "Point", "coordinates": [ 100.5146988, 13.7519451 ] } },
{ "type": "Feature", "properties": { "name": "Lima", "pop_max": 8012000 }, "geometry": { "type": "Point", "coordinates": [ -77.052008, -12.0460668 ] } },
{ "type": "Feature", "properties": { "name": "Dakar", "pop_max": 2604000 }, "geometry": { "type": "Point", "coordinates": [ -17.475076, 14.7177776 ] } },
{ "type": "Feature", "properties": { "name": "Amsterdam", "pop_max": 1031000 }, "geometry": { "type": "Point", "coordinates": [ 4.9146943, 52.3519145 ] } },
{ "type": "Feature", "properties": { "name": "Seoul", "pop_max": 9796000 }, "geometry": { "type": "Point", "coordinates": [ 126.9977851, 37.568295 ] } },
{ "type": "Feature", "properties": { "name": "Manila", "pop_max": 11100000 }, "geometry": { "type": "Point", "coordinates": [ 120.9802713, 14.6061048 ] } },
{ "type": "Feature", "properties": { "name": "Berlin", "pop_max": 3406000 }, "geometry": { "type": "Point", "coordinates": [ 13.3996028, 52.5237645 ] } },
{ "type": "Feature", "properties": { "name": "Kinshasa", "pop_max": 7843000 }, "geometry": { "type": "Point", "coordinates": [ 15.313026, -4.3277782 ] } },
{ "type": "Feature", "properties": { "name": "Athens", "pop_max": 3242000 }, "geometry": { "type": "Point", "coordinates": [ 23.7313752, 37.9852721 ] } },
{ "type": "Feature", "properties": { "name": "Baghdad", "pop_max": 5054000 }, "geometry": { "type": "Point", "coordinates": [ 44.3919229, 33.3405944 ] } },
{ "type": "Feature", "properties": { "name": "Addis Ababa", "pop_max": 3100000 }, "geometry": { "type": "Point", "coordinates": [ 38.6980586, 9.0352562 ] } },
{ "type": "Feature", "properties": { "name": "Tehran", "pop_max": 7873000 }, "geometry": { "type": "Point", "coordinates": [ 51.4223982, 35.6738886 ] } },
{ "type": "Feature", "properties": { "name": "Buenos Aires", "pop_max": 12795000 }, "geometry": { "type": "Point", "coordinates": [ -58.432512687664257, -34.610714591392551 ] } },
{ "type": "Feature", "properties": { "name": "Kabul", "pop_max": 3277000 }, "geometry": { "type": "Point", "coordinates": [ 69.1813142, 34.5186361 ] } },
{ "type": "Feature", "properties": { "name": "Vienna", "pop_max": 2400000 }, "geometry": { "type": "Point", "coordinates": [ 16.3646931, 48.2019611 ] } },
{ "type": "Feature", "properties": { "name": "Taipei", "pop_max": 6900273 }, "geometry": { "type": "Point", "coordinates": [ 121.5683333, 25.0358333 ] } },
{ "type": "Feature", "properties": { "name": "Washington,  D.C.", "pop_max": 4338000 }, "geometry": { "type": "Point", "coordinates": [ -77.0113644, 38.9014952 ] } },
{ "type": "Feature", "properties": { "name": "London", "pop_max": 8567000 }, "geometry": { "type": "Point", "coordinates": [ -0.1186677, 51.5019406 ] } },
{ "type": "Feature", "properties": { "name": "Riyadh", "pop_max": 4465000 }, "geometry": { "type": "Point", "coordinates": [ 46.720487024887696, 24.634497474837755 ] } },
{ "type": "Feature", "properties": { "name": "Cape Town", "pop_max": 3215000 }, "geometry": { "type": "Point", "coordinates": [ 18.4330423, -33.9180651 ] } },
{ "type": "Feature", "properties": { "name": "Moscow", "pop_max": 10452000 }, "geometry": { "type": "Point", "coordinates": [ 37.613577, 55.75411 ] } },
{ "type": "Feature", "properties": { "name": "Mexico City", "pop_max": 19028000 }, "geometry": { "type": "Point", "coordinates": [ -99.1329341, 19.4443883 ] } },
{ "type": "Feature", "properties": { "name": "Rome", "pop_max": 3339000 }, "geometry": { "type": "Point", "coordinates": [ 12.4813126, 41.8979015 ] } },
{ "type": "Feature", "properties": { "name": "Beijing", "pop_max": 11106000 }, "geometry": { "type": "Point", "coordinates": [ 116.394200892606108, 39.901720309862675 ] } },
{ "type": "Feature", "properties": { "name": "Nairobi", "pop_max": 3010000 }, "geometry": { "type": "Point", "coordinates": [ 36.814711, -1.2814009 ] } },
{ "type": "Feature", "properties": { "name": "Jakarta", "pop_max": 9125000 }, "geometry": { "type": "Point", "coordinates": [ 106.8274918, -6.1724718 ] } },
{ "type": "Feature", "properties": { "name": "Bogota", "pop_max": 7772000 }, "geometry": { "type": "Point", "coordinates": [ -74.0852898, 4.5983694 ] } },
{ "type": "Feature", "properties": { "name": "Cairo", "pop_max": 11893000 }, "geometry": { "type": "Point", "coordinates": [ 31.2480224, 30.0519062 ] } },
{ "type": "Feature", "properties": { "name": "Tokyo", "pop_max": 35676000 }, "geometry": { "type": "Point", "coordinates": [ 139.749461599999989, 35.6869628 ] } },
{ "type": "Feature", "properties": { "name": "Paris", "pop_max": 9904000 }, "geometry": { "type": "Point", "coordinates": [ 2.352992461539213, 48.858092316269108 ] } },
{ "type": "Feature", "properties": { "name": "Santiago", "pop_max": 5720000 }, "geometry": { "type": "Point", "coordinates": [ -70.650504072857828, -33.440205069180742 ] } },
{ "type": "Feature", "properties": { "name": "Singapore", "pop_max": 5183700 }, "geometry": { "type": "Point", "coordinates": [ 103.8538748, 1.2949793 ] } }
]
}
